{
"type": "FeatureCollection",
"features": [
{ "type": "Feature", "properties": { "OBJECTID": 1.0, "NAME": "ABIM", "REGION": "NORTHERN REGION", "ISO2": "UG-317" }, "geometry": { "type": "Point", "coordinates": [ 33.75324722352682, 2.70310855381686 ] } },
{ "type": "Feature", "properties": { "OBJECTID": 2.0, "NAME": "ADJUMANI", "REGION": "NORTHERN REGION", "ISO2": "UG-301" }, "geometry": { "type": "Point", "coordinates": [ 31.76914491702399, 3.225459572974559 ] } },
{ "type": "Feature", "properties": { "OBJECTID": 3.0, "NAME": "AGAGO", "REGION": "NORTHERN REGION", "ISO2": "UG-322" }, "geometry": { "type": "Point", "coordinates": [ 33.345743592460373, 2.910526141767394 ] } },
{ "type": "Feature", "properties": { "OBJECTID": 4.0, "NAME": "ALEBTONG", "REGION": "NORTHERN REGION", "ISO2": "UG-323" }, "geometry": { "type": "Point", "coordinates": [ 33.255257852255184, 2.266537671764745 ] } },
{ "type": "Feature", "properties": { "OBJECTID": 5.0, "NAME": "AMOLATAR", "REGION": "NORTHERN REGION", "ISO2": "UG-314" }, "geometry": { "type": "Point", "coordinates": [ 32.738837883250859, 1.619322591504092 ] } },
{ "type": "Feature", "properties": { "OBJECTID": 6.0, "NAME": "AMUDAT", "REGION": "NORTHERN REGION", "ISO2": "UG-324" }, "geometry": { "type": "Point", "coordinates": [ 34.876226021178965, 1.802587270939774 ] } },
{ "type": "Feature", "properties": { "OBJECTID": 7.0, "NAME": "AMURIA", "REGION": "EASTERN REGION", "ISO2": "UG-216" }, "geometry": { "type": "Point", "coordinates": [ 33.687144003388475, 2.103801204504919 ] } },
{ "type": "Feature", "properties": { "OBJECTID": 8.0, "NAME": "AMURU", "REGION": "NORTHERN REGION", "ISO2": "UG-319" }, "geometry": { "type": "Point", "coordinates": [ 31.973574065974542, 3.051065433166976 ] } },
{ "type": "Feature", "properties": { "OBJECTID": 9.0, "NAME": "APAC", "REGION": "NORTHERN REGION", "ISO2": "UG-302" }, "geometry": { "type": "Point", "coordinates": [ 32.562820376025478, 1.88736979382528 ] } },
{ "type": "Feature", "properties": { "OBJECTID": 10.0, "NAME": "ARUA", "REGION": "NORTHERN REGION", "ISO2": "UG-303" }, "geometry": { "type": "Point", "coordinates": [ 31.13683301596086, 2.952277703870356 ] } },
{ "type": "Feature", "properties": { "OBJECTID": 11.0, "NAME": "BUDAKA", "REGION": "EASTERN REGION", "ISO2": "UG-217" }, "geometry": { "type": "Point", "coordinates": [ 33.988717330939174, 1.059870743555888 ] } },
{ "type": "Feature", "properties": { "OBJECTID": 12.0, "NAME": "BUDUDA", "REGION": "EASTERN REGION", "ISO2": "UG-223" }, "geometry": { "type": "Point", "coordinates": [ 34.407467765843599, 1.031840403164515 ] } },
{ "type": "Feature", "properties": { "OBJECTID": 13.0, "NAME": "BUGIRI", "REGION": "EASTERN REGION", "ISO2": "UG-201" }, "geometry": { "type": "Point", "coordinates": [ 33.774164190095156, 0.531205277296441 ] } },
{ "type": "Feature", "properties": { "OBJECTID": 14.0, "NAME": "BUHWEJU", "REGION": "WESTERN REGION", "ISO2": "UG-325" }, "geometry": { "type": "Point", "coordinates": [ 30.338268522284167, -0.330933419719032 ] } },
{ "type": "Feature", "properties": { "OBJECTID": 15.0, "NAME": "BUIKWE", "REGION": "CENTRAL REGION", "ISO2": "UG-117" }, "geometry": { "type": "Point", "coordinates": [ 33.04039973861255, 0.305756791462553 ] } },
{ "type": "Feature", "properties": { "OBJECTID": 16.0, "NAME": "BUKEDEA", "REGION": "EASTERN REGION", "ISO2": "UG-224" }, "geometry": { "type": "Point", "coordinates": [ 34.124285897285638, 1.362361626256406 ] } },
{ "type": "Feature", "properties": { "OBJECTID": 17.0, "NAME": "BUKOMANSIMBI", "REGION": "CENTRAL REGION", "ISO2": "UG-118" }, "geometry": { "type": "Point", "coordinates": [ 31.628256468456488, -0.129707887253243 ] } },
{ "type": "Feature", "properties": { "OBJECTID": 18.0, "NAME": "BUKWO", "REGION": "EASTERN REGION", "ISO2": "UG-218" }, "geometry": { "type": "Point", "coordinates": [ 34.68387197026928, 1.271408524907138 ] } },
{ "type": "Feature", "properties": { "OBJECTID": 19.0, "NAME": "BULAMBULI", "REGION": "EASTERN REGION", "ISO2": "UG-225" }, "geometry": { "type": "Point", "coordinates": [ 34.359855812856466, 1.364149893390867 ] } },
{ "type": "Feature", "properties": { "OBJECTID": 20.0, "NAME": "BULIISA", "REGION": "WESTERN REGION", "ISO2": "UG-419" }, "geometry": { "type": "Point", "coordinates": [ 31.392524050122244, 1.961574527917741 ] } },
{ "type": "Feature", "properties": { "OBJECTID": 21.0, "NAME": "BUNDIBUGYO", "REGION": "WESTERN REGION", "ISO2": "UG-401" }, "geometry": { "type": "Point", "coordinates": [ 30.05643157789218, 0.695737968815503 ] } },
{ "type": "Feature", "properties": { "OBJECTID": 22.0, "NAME": "BUSHENYI", "REGION": "WESTERN REGION", "ISO2": "UG-402" }, "geometry": { "type": "Point", "coordinates": [ 30.14798243458873, -0.493175570141652 ] } },
{ "type": "Feature", "properties": { "OBJECTID": 23.0, "NAME": "BUSIA", "REGION": "EASTERN REGION", "ISO2": "UG-202" }, "geometry": { "type": "Point", "coordinates": [ 34.005411692390084, 0.41176905066778 ] } },
{ "type": "Feature", "properties": { "OBJECTID": 24.0, "NAME": "BUTALEJA", "REGION": "EASTERN REGION", "ISO2": "UG-219" }, "geometry": { "type": "Point", "coordinates": [ 33.933235077167552, 0.883002424660001 ] } },
{ "type": "Feature", "properties": { "OBJECTID": 25.0, "NAME": "BUTAMBALA", "REGION": "CENTRAL REGION", "ISO2": "UG-119" }, "geometry": { "type": "Point", "coordinates": [ 32.074712567583305, 0.153688606555191 ] } },
{ "type": "Feature", "properties": { "OBJECTID": 26.0, "NAME": "BUVUMA", "REGION": "CENTRAL REGION", "ISO2": "UG-120" }, "geometry": { "type": "Point", "coordinates": [ 33.208879611109502, -0.391682272861683 ] } },
{ "type": "Feature", "properties": { "OBJECTID": 27.0, "NAME": "BUYENDE", "REGION": "EASTERN REGION", "ISO2": "UG-226" }, "geometry": { "type": "Point", "coordinates": [ 33.141657758285604, 1.26157513077925 ] } },
{ "type": "Feature", "properties": { "OBJECTID": 28.0, "NAME": "DOKOLO", "REGION": "NORTHERN REGION", "ISO2": "UG-318" }, "geometry": { "type": "Point", "coordinates": [ 33.075008287730185, 1.937952936933993 ] } },
{ "type": "Feature", "properties": { "OBJECTID": 29.0, "NAME": "GOMBA", "REGION": "CENTRAL REGION", "ISO2": "UG-121" }, "geometry": { "type": "Point", "coordinates": [ 31.702653265457112, 0.195673368261316 ] } },
{ "type": "Feature", "properties": { "OBJECTID": 30.0, "NAME": "GULU", "REGION": "NORTHERN REGION", "ISO2": "UG-304" }, "geometry": { "type": "Point", "coordinates": [ 32.427252798085043, 2.834374268357088 ] } },
{ "type": "Feature", "properties": { "OBJECTID": 31.0, "NAME": "HOIMA", "REGION": "WESTERN REGION", "ISO2": "UG-403" }, "geometry": { "type": "Point", "coordinates": [ 31.073941923513132, 1.43675339595747 ] } },
{ "type": "Feature", "properties": { "OBJECTID": 32.0, "NAME": "IBANDA", "REGION": "WESTERN REGION", "ISO2": "UG-416" }, "geometry": { "type": "Point", "coordinates": [ 30.489504593828094, -0.079181827815805 ] } },
{ "type": "Feature", "properties": { "OBJECTID": 33.0, "NAME": "IGANGA", "REGION": "EASTERN REGION", "ISO2": "UG-203" }, "geometry": { "type": "Point", "coordinates": [ 33.526010389083368, 0.689641748634991 ] } },
{ "type": "Feature", "properties": { "OBJECTID": 34.0, "NAME": "ISINGIRO", "REGION": "WESTERN REGION", "ISO2": "UG-417" }, "geometry": { "type": "Point", "coordinates": [ 30.877712678908004, -0.853084982206285 ] } },
{ "type": "Feature", "properties": { "OBJECTID": 35.0, "NAME": "JINJA", "REGION": "EASTERN REGION", "ISO2": "UG-204" }, "geometry": { "type": "Point", "coordinates": [ 33.21244578912831, 0.565491402028121 ] } },
{ "type": "Feature", "properties": { "OBJECTID": 36.0, "NAME": "KAABONG", "REGION": "NORTHERN REGION", "ISO2": "UG-315" }, "geometry": { "type": "Point", "coordinates": [ 34.028093684976575, 3.606505306380763 ] } },
{ "type": "Feature", "properties": { "OBJECTID": 37.0, "NAME": "KABALE", "REGION": "WESTERN REGION", "ISO2": "UG-404" }, "geometry": { "type": "Point", "coordinates": [ 29.976490940738483, -1.222620231025355 ] } },
{ "type": "Feature", "properties": { "OBJECTID": 38.0, "NAME": "KABAROLE", "REGION": "WESTERN REGION", "ISO2": "UG-405" }, "geometry": { "type": "Point", "coordinates": [ 30.289932341883091, 0.597354841148913 ] } },
{ "type": "Feature", "properties": { "OBJECTID": 39.0, "NAME": "KABERAMAIDO", "REGION": "EASTERN REGION", "ISO2": "UG-213" }, "geometry": { "type": "Point", "coordinates": [ 33.222170580399059, 1.757547687161576 ] } },
{ "type": "Feature", "properties": { "OBJECTID": 40.0, "NAME": "KALANGALA", "REGION": "CENTRAL REGION", "ISO2": "UG-101" }, "geometry": { "type": "Point", "coordinates": [ 32.379408639076807, -0.57895083998783 ] } },
{ "type": "Feature", "properties": { "OBJECTID": 41.0, "NAME": "KALIRO", "REGION": "EASTERN REGION", "ISO2": "UG-220" }, "geometry": { "type": "Point", "coordinates": [ 33.483348297228304, 1.067607028925828 ] } },
{ "type": "Feature", "properties": { "OBJECTID": 42.0, "NAME": "KALUNGU", "REGION": "CENTRAL REGION", "ISO2": "UG-122" }, "geometry": { "type": "Point", "coordinates": [ 31.802662318789931, -0.102088480091289 ] } },
{ "type": "Feature", "properties": { "OBJECTID": 43.0, "NAME": "KAMPALA", "REGION": "CENTRAL REGION", "ISO2": "UG-102" }, "geometry": { "type": "Point", "coordinates": [ 32.596960380621482, 0.315722445799517 ] } },
{ "type": "Feature", "properties": { "OBJECTID": 44.0, "NAME": "KAMULI", "REGION": "EASTERN REGION", "ISO2": "UG-205" }, "geometry": { "type": "Point", "coordinates": [ 33.104032520861814, 0.939931677827993 ] } },
{ "type": "Feature", "properties": { "OBJECTID": 45.0, "NAME": "KAMWENGE", "REGION": "WESTERN REGION", "ISO2": "UG-413" }, "geometry": { "type": "Point", "coordinates": [ 30.493833883126353, 0.2255108436532 ] } },
{ "type": "Feature", "properties": { "OBJECTID": 46.0, "NAME": "KANUNGU", "REGION": "WESTERN REGION", "ISO2": "UG-414" }, "geometry": { "type": "Point", "coordinates": [ 29.726815875961659, -0.810615380902827 ] } },
{ "type": "Feature", "properties": { "OBJECTID": 47.0, "NAME": "KAPCHORWA", "REGION": "EASTERN REGION", "ISO2": "UG-206" }, "geometry": { "type": "Point", "coordinates": [ 34.423926941760577, 1.348618115107268 ] } },
{ "type": "Feature", "properties": { "OBJECTID": 48.0, "NAME": "KASESE", "REGION": "WESTERN REGION", "ISO2": "UG-406" }, "geometry": { "type": "Point", "coordinates": [ 30.002026729614407, 0.117637748024345 ] } },
{ "type": "Feature", "properties": { "OBJECTID": 49.0, "NAME": "KATAKWI", "REGION": "EASTERN REGION", "ISO2": "UG-207" }, "geometry": { "type": "Point", "coordinates": [ 34.038164334310245, 1.922100155999623 ] } },
{ "type": "Feature", "properties": { "OBJECTID": 50.0, "NAME": "KAYUNGA", "REGION": "CENTRAL REGION", "ISO2": "UG-112" }, "geometry": { "type": "Point", "coordinates": [ 32.891406174808672, 0.973127781955264 ] } },
{ "type": "Feature", "properties": { "OBJECTID": 51.0, "NAME": "KIBAALE", "REGION": "WESTERN REGION", "ISO2": "UG-407" }, "geometry": { "type": "Point", "coordinates": [ 31.064477766758483, 0.947134730067937 ] } },
{ "type": "Feature", "properties": { "OBJECTID": 52.0, "NAME": "KIBOGA", "REGION": "CENTRAL REGION", "ISO2": "UG-103" }, "geometry": { "type": "Point", "coordinates": [ 31.956647862366765, 0.840236579560621 ] } },
{ "type": "Feature", "properties": { "OBJECTID": 53.0, "NAME": "KIBUKU", "REGION": "EASTERN REGION", "ISO2": "UG-227" }, "geometry": { "type": "Point", "coordinates": [ 33.801311538047344, 1.053806707751767 ] } },
{ "type": "Feature", "properties": { "OBJECTID": 54.0, "NAME": "KIRUHURA", "REGION": "WESTERN REGION", "ISO2": "UG-418" }, "geometry": { "type": "Point", "coordinates": [ 30.873439171639337, -0.217331625803279 ] } },
{ "type": "Feature", "properties": { "OBJECTID": 55.0, "NAME": "KIRYANDONGO", "REGION": "WESTERN REGION", "ISO2": "UG-420" }, "geometry": { "type": "Point", "coordinates": [ 32.04161847831287, 2.022882806186511 ] } },
{ "type": "Feature", "properties": { "OBJECTID": 56.0, "NAME": "KISORO", "REGION": "WESTERN REGION", "ISO2": "UG-408" }, "geometry": { "type": "Point", "coordinates": [ 29.681799798696691, -1.217925757687717 ] } },
{ "type": "Feature", "properties": { "OBJECTID": 57.0, "NAME": "KITGUM", "REGION": "NORTHERN REGION", "ISO2": "UG-305" }, "geometry": { "type": "Point", "coordinates": [ 33.259380585282884, 3.401510968152285 ] } },
{ "type": "Feature", "properties": { "OBJECTID": 58.0, "NAME": "KOBOKO", "REGION": "NORTHERN REGION", "ISO2": "UG-316" }, "geometry": { "type": "Point", "coordinates": [ 31.007172827569583, 3.525373147520593 ] } },
{ "type": "Feature", "properties": { "OBJECTID": 59.0, "NAME": "KOLE", "REGION": "NORTHERN REGION", "ISO2": "UG-326" }, "geometry": { "type": "Point", "coordinates": [ 32.764747305826894, 2.292856444854085 ] } },
{ "type": "Feature", "properties": { "OBJECTID": 60.0, "NAME": "KOTIDO", "REGION": "NORTHERN REGION", "ISO2": "UG-306" }, "geometry": { "type": "Point", "coordinates": [ 33.986789028558178, 3.023464195897317 ] } },
{ "type": "Feature", "properties": { "OBJECTID": 61.0, "NAME": "KUMI", "REGION": "EASTERN REGION", "ISO2": "UG-208" }, "geometry": { "type": "Point", "coordinates": [ 33.961441593848079, 1.473564548189976 ] } },
{ "type": "Feature", "properties": { "OBJECTID": 62.0, "NAME": "KWEEN", "REGION": "EASTERN REGION", "ISO2": "UG-228" }, "geometry": { "type": "Point", "coordinates": [ 34.574350018914416, 1.430224142867973 ] } },
{ "type": "Feature", "properties": { "OBJECTID": 63.0, "NAME": "KYANKWANZI", "REGION": "CENTRAL REGION", "ISO2": "UG-123" }, "geometry": { "type": "Point", "coordinates": [ 31.641615200116053, 1.121446823001609 ] } },
{ "type": "Feature", "properties": { "OBJECTID": 64.0, "NAME": "KYEGEGWA", "REGION": "WESTERN REGION", "ISO2": "UG-421" }, "geometry": { "type": "Point", "coordinates": [ 31.002052932945787, 0.450794621997353 ] } },
{ "type": "Feature", "properties": { "OBJECTID": 65.0, "NAME": "KYENJOJO", "REGION": "WESTERN REGION", "ISO2": "UG-415" }, "geometry": { "type": "Point", "coordinates": [ 30.662759256313297, 0.656586596048047 ] } },
{ "type": "Feature", "properties": { "OBJECTID": 66.0, "NAME": "LAMWO", "REGION": "NORTHERN REGION", "ISO2": "UG-327" }, "geometry": { "type": "Point", "coordinates": [ 32.723946242040356, 3.550575983772617 ] } },
{ "type": "Feature", "properties": { "OBJECTID": 67.0, "NAME": "LIRA", "REGION": "NORTHERN REGION", "ISO2": "UG-307" }, "geometry": { "type": "Point", "coordinates": [ 32.96210306016404, 2.302522235222973 ] } },
{ "type": "Feature", "properties": { "OBJECTID": 68.0, "NAME": "LUUKA", "REGION": "EASTERN REGION", "ISO2": "UG-229" }, "geometry": { "type": "Point", "coordinates": [ 33.33870344497042, 0.803938042156463 ] } },
{ "type": "Feature", "properties": { "OBJECTID": 69.0, "NAME": "LUWERO", "REGION": "CENTRAL REGION", "ISO2": "UG-104" }, "geometry": { "type": "Point", "coordinates": [ 32.583254101305364, 0.828944575714388 ] } },
{ "type": "Feature", "properties": { "OBJECTID": 70.0, "NAME": "LWENGO", "REGION": "CENTRAL REGION", "ISO2": "UG-124" }, "geometry": { "type": "Point", "coordinates": [ 31.425863265768189, -0.41336474780643 ] } },
{ "type": "Feature", "properties": { "OBJECTID": 71.0, "NAME": "LYANTONDE", "REGION": "CENTRAL REGION", "ISO2": "UG-116" }, "geometry": { "type": "Point", "coordinates": [ 31.188073973841121, -0.223134468766641 ] } },
{ "type": "Feature", "properties": { "OBJECTID": 72.0, "NAME": "MANAFWA", "REGION": "EASTERN REGION", "ISO2": "UG-221" }, "geometry": { "type": "Point", "coordinates": [ 34.327859882328191, 0.876033659733939 ] } },
{ "type": "Feature", "properties": { "OBJECTID": 73.0, "NAME": "MARACHA", "REGION": "NORTHERN REGION", "ISO2": "UG-320" }, "geometry": { "type": "Point", "coordinates": [ 30.926925994159802, 3.236934813952522 ] } },
{ "type": "Feature", "properties": { "OBJECTID": 74.0, "NAME": "MASAKA", "REGION": "CENTRAL REGION", "ISO2": "UG-105" }, "geometry": { "type": "Point", "coordinates": [ 31.855644532785789, -0.491266191923405 ] } },
{ "type": "Feature", "properties": { "OBJECTID": 75.0, "NAME": "MASINDI", "REGION": "WESTERN REGION", "ISO2": "UG-409" }, "geometry": { "type": "Point", "coordinates": [ 31.712912542760879, 1.743118841462052 ] } },
{ "type": "Feature", "properties": { "OBJECTID": 76.0, "NAME": "MAYUGE", "REGION": "EASTERN REGION", "ISO2": "UG-214" }, "geometry": { "type": "Point", "coordinates": [ 33.551708300974852, -0.088413299243045 ] } },
{ "type": "Feature", "properties": { "OBJECTID": 77.0, "NAME": "MBALE", "REGION": "EASTERN REGION", "ISO2": "UG-209" }, "geometry": { "type": "Point", "coordinates": [ 34.198309051206905, 1.019151488906242 ] } },
{ "type": "Feature", "properties": { "OBJECTID": 78.0, "NAME": "MBARARA", "REGION": "WESTERN REGION", "ISO2": "UG-410" }, "geometry": { "type": "Point", "coordinates": [ 30.570635382979052, -0.573370938035857 ] } },
{ "type": "Feature", "properties": { "OBJECTID": 79.0, "NAME": "MITOOMA", "REGION": "WESTERN REGION", "ISO2": "UG-422" }, "geometry": { "type": "Point", "coordinates": [ 30.02270131914301, -0.62431222619655 ] } },
{ "type": "Feature", "properties": { "OBJECTID": 80.0, "NAME": "MITYANA", "REGION": "CENTRAL REGION", "ISO2": "UG-114" }, "geometry": { "type": "Point", "coordinates": [ 32.059645942846259, 0.443250813652152 ] } },
{ "type": "Feature", "properties": { "OBJECTID": 81.0, "NAME": "MOROTO", "REGION": "NORTHERN REGION", "ISO2": "UG-308" }, "geometry": { "type": "Point", "coordinates": [ 34.6316320472244, 2.648697544867445 ] } },
{ "type": "Feature", "properties": { "OBJECTID": 82.0, "NAME": "MOYO", "REGION": "NORTHERN REGION", "ISO2": "UG-309" }, "geometry": { "type": "Point", "coordinates": [ 31.671640461608813, 3.530285189845532 ] } },
{ "type": "Feature", "properties": { "OBJECTID": 83.0, "NAME": "MPIGI", "REGION": "CENTRAL REGION", "ISO2": "UG-106" }, "geometry": { "type": "Point", "coordinates": [ 32.158970817882206, 0.067044419545553 ] } },
{ "type": "Feature", "properties": { "OBJECTID": 84.0, "NAME": "MUBENDE", "REGION": "CENTRAL REGION", "ISO2": "UG-107" }, "geometry": { "type": "Point", "coordinates": [ 31.534772686027228, 0.518204479820483 ] } },
{ "type": "Feature", "properties": { "OBJECTID": 85.0, "NAME": "MUKONO", "REGION": "CENTRAL REGION", "ISO2": "UG-108" }, "geometry": { "type": "Point", "coordinates": [ 32.786222457724641, 0.004421824308744 ] } },
{ "type": "Feature", "properties": { "OBJECTID": 86.0, "NAME": "NAKAPIRIPIRIT", "REGION": "NORTHERN REGION", "ISO2": "UG-311" }, "geometry": { "type": "Point", "coordinates": [ 34.562941561546332, 1.88607163463435 ] } },
{ "type": "Feature", "properties": { "OBJECTID": 87.0, "NAME": "NAKASEKE", "REGION": "CENTRAL REGION", "ISO2": "UG-115" }, "geometry": { "type": "Point", "coordinates": [ 32.169251215779532, 1.048734426294241 ] } },
{ "type": "Feature", "properties": { "OBJECTID": 88.0, "NAME": "NAKASONGOLA", "REGION": "CENTRAL REGION", "ISO2": "UG-109" }, "geometry": { "type": "Point", "coordinates": [ 32.425622541609457, 1.351926961516405 ] } },
{ "type": "Feature", "properties": { "OBJECTID": 89.0, "NAME": "NAMAYINGO", "REGION": "EASTERN REGION", "ISO2": "UG-230" }, "geometry": { "type": "Point", "coordinates": [ 33.804558585756233, -0.317225239410104 ] } },
{ "type": "Feature", "properties": { "OBJECTID": 90.0, "NAME": "NAMUTUMBA", "REGION": "EASTERN REGION", "ISO2": "UG-222" }, "geometry": { "type": "Point", "coordinates": [ 33.681660432081742, 0.868706155032021 ] } },
{ "type": "Feature", "properties": { "OBJECTID": 91.0, "NAME": "NAPAK", "REGION": "NORTHERN REGION", "ISO2": "UG-328" }, "geometry": { "type": "Point", "coordinates": [ 34.263721259152284, 2.392296606681139 ] } },
{ "type": "Feature", "properties": { "OBJECTID": 92.0, "NAME": "NEBBI", "REGION": "NORTHERN REGION", "ISO2": "UG-310" }, "geometry": { "type": "Point", "coordinates": [ 31.276279785307327, 2.458912085517411 ] } },
{ "type": "Feature", "properties": { "OBJECTID": 93.0, "NAME": "NGORA", "REGION": "EASTERN REGION", "ISO2": "UG-231" }, "geometry": { "type": "Point", "coordinates": [ 33.754424152821194, 1.496332433052252 ] } },
{ "type": "Feature", "properties": { "OBJECTID": 94.0, "NAME": "NTOROKO", "REGION": "WESTERN REGION", "ISO2": "UG-423" }, "geometry": { "type": "Point", "coordinates": [ 30.363527854414322, 1.011096500085611 ] } },
{ "type": "Feature", "properties": { "OBJECTID": 95.0, "NAME": "NTUNGAMO", "REGION": "WESTERN REGION", "ISO2": "UG-411" }, "geometry": { "type": "Point", "coordinates": [ 30.272449477746125, -0.942096173701988 ] } },
{ "type": "Feature", "properties": { "OBJECTID": 96.0, "NAME": "NWOYA", "REGION": "NORTHERN REGION", "ISO2": "UG-329" }, "geometry": { "type": "Point", "coordinates": [ 31.836330324547927, 2.528533706353218 ] } },
{ "type": "Feature", "properties": { "OBJECTID": 97.0, "NAME": "OTUKE", "REGION": "NORTHERN REGION", "ISO2": "UG-330" }, "geometry": { "type": "Point", "coordinates": [ 33.382760875317757, 2.474986224537627 ] } },
{ "type": "Feature", "properties": { "OBJECTID": 98.0, "NAME": "OYAM", "REGION": "NORTHERN REGION", "ISO2": "UG-321" }, "geometry": { "type": "Point", "coordinates": [ 32.484139213621134, 2.372275813445115 ] } },
{ "type": "Feature", "properties": { "OBJECTID": 99.0, "NAME": "PADER", "REGION": "NORTHERN REGION", "ISO2": "UG-312" }, "geometry": { "type": "Point", "coordinates": [ 32.870085045622737, 2.93158851035595 ] } },
{ "type": "Feature", "properties": { "OBJECTID": 100.0, "NAME": "PALLISA", "REGION": "EASTERN REGION", "ISO2": "UG-210" }, "geometry": { "type": "Point", "coordinates": [ 33.742157801969647, 1.220873438677888 ] } },
{ "type": "Feature", "properties": { "OBJECTID": 101.0, "NAME": "RAKAI", "REGION": "CENTRAL REGION", "ISO2": "UG-110" }, "geometry": { "type": "Point", "coordinates": [ 31.51988733691018, -0.766781225729956 ] } },
{ "type": "Feature", "properties": { "OBJECTID": 102.0, "NAME": "RUBIRIZI", "REGION": "WESTERN REGION", "ISO2": "UG-424" }, "geometry": { "type": "Point", "coordinates": [ 29.992297332236149, -0.26020699137954 ] } },
{ "type": "Feature", "properties": { "OBJECTID": 103.0, "NAME": "RUKUNGIRI", "REGION": "WESTERN REGION", "ISO2": "UG-412" }, "geometry": { "type": "Point", "coordinates": [ 29.88911516403147, -0.704937618416395 ] } },
{ "type": "Feature", "properties": { "OBJECTID": 104.0, "NAME": "SERERE", "REGION": "EASTERN REGION", "ISO2": "UG-232" }, "geometry": { "type": "Point", "coordinates": [ 33.37277700184017, 1.488336194362487 ] } },
{ "type": "Feature", "properties": { "OBJECTID": 105.0, "NAME": "SHEEMA", "REGION": "WESTERN REGION", "ISO2": "UG-425" }, "geometry": { "type": "Point", "coordinates": [ 30.326639319619431, -0.603636441635568 ] } },
{ "type": "Feature", "properties": { "OBJECTID": 106.0, "NAME": "SIRONKO", "REGION": "EASTERN REGION", "ISO2": "UG-425" }, "geometry": { "type": "Point", "coordinates": [ 34.318220864853352, 1.171688801991734 ] } },
{ "type": "Feature", "properties": { "OBJECTID": 107.0, "NAME": "SOROTI", "REGION": "EASTERN REGION", "ISO2": "UG-211" }, "geometry": { "type": "Point", "coordinates": [ 33.591014996911682, 1.771676140395704 ] } },
{ "type": "Feature", "properties": { "OBJECTID": 108.0, "NAME": "SSEMBABULE", "REGION": "CENTRAL REGION", "ISO2": "UG-111" }, "geometry": { "type": "Point", "coordinates": [ 31.339885294067304, -0.026456637715686 ] } },
{ "type": "Feature", "properties": { "OBJECTID": 109.0, "NAME": "TORORO", "REGION": "EASTERN REGION", "ISO2": "UG-212" }, "geometry": { "type": "Point", "coordinates": [ 34.082101673867015, 0.72515569560765 ] } },
{ "type": "Feature", "properties": { "OBJECTID": 110.0, "NAME": "WAKISO", "REGION": "CENTRAL REGION", "ISO2": "UG-113" }, "geometry": { "type": "Point", "coordinates": [ 32.446033551357395, 0.220385031350769 ] } },
{ "type": "Feature", "properties": { "OBJECTID": 111.0, "NAME": "YUMBE", "REGION": "NORTHERN REGION", "ISO2": "UG-313" }, "geometry": { "type": "Point", "coordinates": [ 31.288083744648642, 3.520818492472506 ] } },
{ "type": "Feature", "properties": { "OBJECTID": 112.0, "NAME": "ZOMBO", "REGION": "NORTHERN REGION", "ISO2": "UG-331" }, "geometry": { "type": "Point", "coordinates": [ 30.896335702987923, 2.51887235117593 ] } },
{ "type": "Feature", "properties": { "OBJECTID": 1.0, "NAME": "Chitipa", "REGION": "Northern Region", "ISO2": "MW-CT" }, "geometry": { "type": "Point", "coordinates": [ 33.500058657159045, -9.958393963071101 ] } },
{ "type": "Feature", "properties": { "OBJECTID": 2.0, "NAME": "Karonga", "REGION": "Northern Region", "ISO2": "MW-KR" }, "geometry": { "type": "Point", "coordinates": [ 33.882393941826727, -10.083555886450755 ] } },
{ "type": "Feature", "properties": { "OBJECTID": 3.0, "NAME": "Nkhata Bay", "REGION": "Northern Region", "ISO2": "MW-NB" }, "geometry": { "type": "Point", "coordinates": [ 34.041559464459681, -11.671744082650584 ] } },
{ "type": "Feature", "properties": { "OBJECTID": 4.0, "NAME": "Rumphi", "REGION": "Northern Region", "ISO2": "MW-RU" }, "geometry": { "type": "Point", "coordinates": [ 33.813053654487334, -10.818974994764044 ] } },
{ "type": "Feature", "properties": { "OBJECTID": 6.0, "NAME": "Likoma", "REGION": "Northern Region", "ISO2": "MW-LK" }, "geometry": { "type": "Point", "coordinates": [ 34.715274162025345, -12.058218667165226 ] } },
{ "type": "Feature", "properties": { "OBJECTID": 7.0, "NAME": "Kasungu", "REGION": "Central Region", "ISO2": "MW-KS" }, "geometry": { "type": "Point", "coordinates": [ 33.384931085010159, -12.983606354126717 ] } },
{ "type": "Feature", "properties": { "OBJECTID": 8.0, "NAME": "Nkhotakota", "REGION": "Central Region", "ISO2": "MW-NK" }, "geometry": { "type": "Point", "coordinates": [ 34.088412143892363, -12.844968403855901 ] } },
{ "type": "Feature", "properties": { "OBJECTID": 9.0, "NAME": "Ntchisi", "REGION": "Central Region", "ISO2": "MW-NI" }, "geometry": { "type": "Point", "coordinates": [ 33.919435674071835, -13.297296655142386 ] } },
{ "type": "Feature", "properties": { "OBJECTID": 10.0, "NAME": "Dowa", "REGION": "Central Region", "ISO2": "MW-DO" }, "geometry": { "type": "Point", "coordinates": [ 33.788200741439475, -13.568943740019707 ] } },
{ "type": "Feature", "properties": { "OBJECTID": 11.0, "NAME": "Salima", "REGION": "Central Region", "ISO2": "MW-SA" }, "geometry": { "type": "Point", "coordinates": [ 34.383431854860895, -13.735814741339119 ] } },
{ "type": "Feature", "properties": { "OBJECTID": 13.0, "NAME": "Mchinji", "REGION": "Central Region", "ISO2": "MW-MC" }, "geometry": { "type": "Point", "coordinates": [ 33.056655049004796, -13.692086674753991 ] } },
{ "type": "Feature", "properties": { "OBJECTID": 14.0, "NAME": "Dedza", "REGION": "Central Region", "ISO2": "MW-DE" }, "geometry": { "type": "Point", "coordinates": [ 34.228282544888181, -14.265585533368752 ] } },
{ "type": "Feature", "properties": { "OBJECTID": 15.0, "NAME": "Ntcheu", "REGION": "Central Region", "ISO2": "MW-NU" }, "geometry": { "type": "Point", "coordinates": [ 34.714883481384746, -14.809799747732356 ] } },
{ "type": "Feature", "properties": { "OBJECTID": 16.0, "NAME": "Mangochi", "REGION": "Southern Region", "ISO2": "MW-MG" }, "geometry": { "type": "Point", "coordinates": [ 35.189431725345152, -14.355776925163251 ] } },
{ "type": "Feature", "properties": { "OBJECTID": 17.0, "NAME": "Machinga", "REGION": "Southern Region", "ISO2": "MW-MH" }, "geometry": { "type": "Point", "coordinates": [ 35.566239210441431, -14.939508645156346 ] } },
{ "type": "Feature", "properties": { "OBJECTID": 19.0, "NAME": "Chiradzulu", "REGION": "Southern Region", "ISO2": "MW-CR" }, "geometry": { "type": "Point", "coordinates": [ 35.214015101677958, -15.745042728202382 ] } },
{ "type": "Feature", "properties": { "OBJECTID": 22.0, "NAME": "Thyolo", "REGION": "Southern Region", "ISO2": "MW-TH" }, "geometry": { "type": "Point", "coordinates": [ 35.144932978043713, -16.102974844852742 ] } },
{ "type": "Feature", "properties": { "OBJECTID": 23.0, "NAME": "Mulanje", "REGION": "Southern Region", "ISO2": "MW-MU" }, "geometry": { "type": "Point", "coordinates": [ 35.510187207073756, -15.935884667442521 ] } },
{ "type": "Feature", "properties": { "OBJECTID": 24.0, "NAME": "Phalombe", "REGION": "Southern Region", "ISO2": "MW-PH" }, "geometry": { "type": "Point", "coordinates": [ 35.690961951129346, -15.669495436693266 ] } },
{ "type": "Feature", "properties": { "OBJECTID": 25.0, "NAME": "Chikwawa", "REGION": "Southern Region", "ISO2": "MW-CK" }, "geometry": { "type": "Point", "coordinates": [ 34.708715856640971, -16.163136698674116 ] } },
{ "type": "Feature", "properties": { "OBJECTID": 26.0, "NAME": "Nsanje", "REGION": "Southern Region", "ISO2": "MW-NS" }, "geometry": { "type": "Point", "coordinates": [ 35.143103850325552, -16.744554332893347 ] } },
{ "type": "Feature", "properties": { "OBJECTID": 27.0, "NAME": "Balaka", "REGION": "Southern Region", "ISO2": "MW-BA" }, "geometry": { "type": "Point", "coordinates": [ 35.057010059758824, -15.035291543363243 ] } },
{ "type": "Feature", "properties": { "OBJECTID": 28.0, "NAME": "Neno", "REGION": "Southern Region", "ISO2": "MW-NE" }, "geometry": { "type": "Point", "coordinates": [ 34.696103897343924, -15.455845305724813 ] } },
{ "type": "Feature", "properties": { "OBJECTID": 33.0, "NAME": "Mwanza", "REGION": "Southern Region", "ISO2": "MW-MW" }, "geometry": { "type": "Point", "coordinates": [ 35.050874906420908, -15.789554655535335 ] } },
{ "type": "Feature", "properties": { "OBJECTID": 5.0, "NAME": "Mzimba", "REGION": "Northern Region", "ISO2": "MW-MZ" }, "geometry": { "type": "Point", "coordinates": [ 33.64462455207223, -11.783402657954264 ] } },
{ "type": "Feature", "properties": { "OBJECTID": 18.0, "NAME": "Zomba", "REGION": "Southern Region", "ISO2": "MW-ZO" }, "geometry": { "type": "Point", "coordinates": [ 35.370073773076349, -15.22937706255183 ] } },
{ "type": "Feature", "properties": { "OBJECTID": 20.0, "NAME": "Blantyre", "REGION": "Southern Region", "ISO2": "MW-BL" }, "geometry": { "type": "Point", "coordinates": [ 34.809567618331634, -15.656301818207 ] } },
{ "type": "Feature", "properties": { "OBJECTID": 12.0, "NAME": "Lilongwe", "REGION": "Central Region", "ISO2": "MW-LI" }, "geometry": { "type": "Point", "coordinates": [ 33.684923068035182, -14.01553976451973 ] } },
{ "type": "Feature", "properties": { "OBJECTID": 1.0, "NAME": "Turkana", "REGION": null, "ISO2": "KE-43" }, "geometry": { "type": "Point", "coordinates": [ 35.434957399135627, 3.41296376974725 ] } },
{ "type": "Feature", "properties": { "OBJECTID": 2.0, "NAME": "Marsabit", "REGION": null, "ISO2": "KE-25" }, "geometry": { "type": "Point", "coordinates": [ 37.567986408043545, 2.9805033989746 ] } },
{ "type": "Feature", "properties": { "OBJECTID": 3.0, "NAME": "Mandera", "REGION": null, "ISO2": "KE-24" }, "geometry": { "type": "Point", "coordinates": [ 40.736653326452391, 3.438399557185803 ] } },
{ "type": "Feature", "properties": { "OBJECTID": 4.0, "NAME": "Wajir", "REGION": null, "ISO2": "KE-46" }, "geometry": { "type": "Point", "coordinates": [ 40.033556220661858, 1.809709378068274 ] } },
{ "type": "Feature", "properties": { "OBJECTID": 5.0, "NAME": "West Pokot", "REGION": null, "ISO2": "KE-47" }, "geometry": { "type": "Point", "coordinates": [ 35.243095626477619, 1.727335358232474 ] } },
{ "type": "Feature", "properties": { "OBJECTID": 6.0, "NAME": "Samburu", "REGION": null, "ISO2": "KE-37" }, "geometry": { "type": "Point", "coordinates": [ 37.116796177113741, 1.319876783265619 ] } },
{ "type": "Feature", "properties": { "OBJECTID": 7.0, "NAME": "Isiolo", "REGION": null, "ISO2": "KE-09" }, "geometry": { "type": "Point", "coordinates": [ 38.539095932510328, 1.011825872671549 ] } },
{ "type": "Feature", "properties": { "OBJECTID": 8.0, "NAME": "Baringo", "REGION": null, "ISO2": "KE-01" }, "geometry": { "type": "Point", "coordinates": [ 35.940325289879127, 0.676434411565876 ] } },
{ "type": "Feature", "properties": { "OBJECTID": 9.0, "NAME": "Keiyo-Marakwet", "REGION": null, "ISO2": "KE-05" }, "geometry": { "type": "Point", "coordinates": [ 35.536403642119815, 0.799635423343703 ] } },
{ "type": "Feature", "properties": { "OBJECTID": 10.0, "NAME": "Trans Nzoia", "REGION": null, "ISO2": "KE-42" }, "geometry": { "type": "Point", "coordinates": [ 34.95709316668308, 1.051828862179397 ] } },
{ "type": "Feature", "properties": { "OBJECTID": 11.0, "NAME": "Bungoma", "REGION": null, "ISO2": "KE-03" }, "geometry": { "type": "Point", "coordinates": [ 34.639183656568463, 0.751362798477074 ] } },
{ "type": "Feature", "properties": { "OBJECTID": 12.0, "NAME": "Garissa", "REGION": null, "ISO2": "KE-07" }, "geometry": { "type": "Point", "coordinates": [ 40.180794458952413, -0.488364573537386 ] } },
{ "type": "Feature", "properties": { "OBJECTID": 13.0, "NAME": "Uasin Gishu", "REGION": null, "ISO2": "KE-44" }, "geometry": { "type": "Point", "coordinates": [ 35.318629348686095, 0.53202803583322 ] } },
{ "type": "Feature", "properties": { "OBJECTID": 14.0, "NAME": "Kakamega", "REGION": null, "ISO2": "KE-11" }, "geometry": { "type": "Point", "coordinates": [ 34.744027766461038, 0.405536553621514 ] } },
{ "type": "Feature", "properties": { "OBJECTID": 15.0, "NAME": "Laikipia", "REGION": null, "ISO2": "KE-20" }, "geometry": { "type": "Point", "coordinates": [ 36.762521620260564, 0.323864787796082 ] } },
{ "type": "Feature", "properties": { "OBJECTID": 16.0, "NAME": "Busia", "REGION": null, "ISO2": "KE-04" }, "geometry": { "type": "Point", "coordinates": [ 34.193839766589413, 0.389917216578262 ] } },
{ "type": "Feature", "properties": { "OBJECTID": 17.0, "NAME": "Meru", "REGION": null, "ISO2": "KE-26" }, "geometry": { "type": "Point", "coordinates": [ 37.760178796295385, 0.171766123184388 ] } },
{ "type": "Feature", "properties": { "OBJECTID": 18.0, "NAME": "Nandi", "REGION": null, "ISO2": "KE-32" }, "geometry": { "type": "Point", "coordinates": [ 35.112299671767417, 0.18539778182968 ] } },
{ "type": "Feature", "properties": { "OBJECTID": 19.0, "NAME": "Siaya", "REGION": null, "ISO2": "KE-38" }, "geometry": { "type": "Point", "coordinates": [ 34.247255481696719, -0.058516742988714 ] } },
{ "type": "Feature", "properties": { "OBJECTID": 20.0, "NAME": "Nakuru", "REGION": null, "ISO2": "KE-31" }, "geometry": { "type": "Point", "coordinates": [ 36.07634830732821, -0.464018019849151 ] } },
{ "type": "Feature", "properties": { "OBJECTID": 21.0, "NAME": "Vihiga", "REGION": null, "ISO2": "KE-45" }, "geometry": { "type": "Point", "coordinates": [ 34.721910903081813, 0.078251091552887 ] } },
{ "type": "Feature", "properties": { "OBJECTID": 22.0, "NAME": "Nyandarua", "REGION": null, "ISO2": "KE-35" }, "geometry": { "type": "Point", "coordinates": [ 36.47791508446344, -0.318080982392303 ] } },
{ "type": "Feature", "properties": { "OBJECTID": 23.0, "NAME": "Tharaka", "REGION": null, "ISO2": "KE-41" }, "geometry": { "type": "Point", "coordinates": [ 37.871707603577725, -0.199028135117707 ] } },
{ "type": "Feature", "properties": { "OBJECTID": 24.0, "NAME": "Kericho", "REGION": null, "ISO2": "KE-12" }, "geometry": { "type": "Point", "coordinates": [ 35.336657866275296, -0.243722823294004 ] } },
{ "type": "Feature", "properties": { "OBJECTID": 25.0, "NAME": "Kisumu", "REGION": null, "ISO2": "KE-17" }, "geometry": { "type": "Point", "coordinates": [ 34.834692106555387, -0.168431493838934 ] } },
{ "type": "Feature", "properties": { "OBJECTID": 26.0, "NAME": "Nyeri", "REGION": null, "ISO2": "KE-36" }, "geometry": { "type": "Point", "coordinates": [ 36.953828854847892, -0.343076140355815 ] } },
{ "type": "Feature", "properties": { "OBJECTID": 27.0, "NAME": "Tana River", "REGION": null, "ISO2": "KE-40" }, "geometry": { "type": "Point", "coordinates": [ 39.412165074843692, -1.557155313758006 ] } },
{ "type": "Feature", "properties": { "OBJECTID": 28.0, "NAME": "Kitui", "REGION": null, "ISO2": "KE-18" }, "geometry": { "type": "Point", "coordinates": [ 38.40584415026315, -1.485903042338429 ] } },
{ "type": "Feature", "properties": { "OBJECTID": 29.0, "NAME": "Kirinyaga", "REGION": null, "ISO2": "KE-15" }, "geometry": { "type": "Point", "coordinates": [ 37.318643523642663, -0.52239264439672 ] } },
{ "type": "Feature", "properties": { "OBJECTID": 30.0, "NAME": "Embu", "REGION": null, "ISO2": "KE-06" }, "geometry": { "type": "Point", "coordinates": [ 37.625190110350886, -0.601300591850897 ] } },
{ "type": "Feature", "properties": { "OBJECTID": 31.0, "NAME": "Homa Bay", "REGION": null, "ISO2": "KE-08" }, "geometry": { "type": "Point", "coordinates": [ 34.360377459265365, -0.540974103428173 ] } },
{ "type": "Feature", "properties": { "OBJECTID": 32.0, "NAME": "Bomet", "REGION": null, "ISO2": "KE-02" }, "geometry": { "type": "Point", "coordinates": [ 35.28131340974199, -0.69151937817734 ] } },
{ "type": "Feature", "properties": { "OBJECTID": 33.0, "NAME": "Nyamira", "REGION": null, "ISO2": "KE-34" }, "geometry": { "type": "Point", "coordinates": [ 34.964763208573558, -0.6422428008012 ] } },
{ "type": "Feature", "properties": { "OBJECTID": 34.0, "NAME": "Narok", "REGION": null, "ISO2": "KE-33" }, "geometry": { "type": "Point", "coordinates": [ 35.575278974273594, -1.253918785789039 ] } },
{ "type": "Feature", "properties": { "OBJECTID": 35.0, "NAME": "Kisii", "REGION": null, "ISO2": "KE-16" }, "geometry": { "type": "Point", "coordinates": [ 34.776191792531456, -0.772994831749354 ] } },
{ "type": "Feature", "properties": { "OBJECTID": 36.0, "NAME": "Murang'a", "REGION": null, "ISO2": "KE-29" }, "geometry": { "type": "Point", "coordinates": [ 37.031103007384225, -0.808843002022055 ] } },
{ "type": "Feature", "properties": { "OBJECTID": 37.0, "NAME": "Migori", "REGION": null, "ISO2": "KE-27" }, "geometry": { "type": "Point", "coordinates": [ 34.363887343488337, -0.990352960344439 ] } },
{ "type": "Feature", "properties": { "OBJECTID": 38.0, "NAME": "Kiambu", "REGION": null, "ISO2": "KE-13" }, "geometry": { "type": "Point", "coordinates": [ 36.819684512043125, -1.0667262979795 ] } },
{ "type": "Feature", "properties": { "OBJECTID": 39.0, "NAME": "Machakos", "REGION": null, "ISO2": "KE-22" }, "geometry": { "type": "Point", "coordinates": [ 37.405647900790733, -1.289852645692027 ] } },
{ "type": "Feature", "properties": { "OBJECTID": 40.0, "NAME": "Kajiado", "REGION": null, "ISO2": "KE-10" }, "geometry": { "type": "Point", "coordinates": [ 36.909127891998551, -2.120649731950858 ] } },
{ "type": "Feature", "properties": { "OBJECTID": 41.0, "NAME": "Nairobi", "REGION": null, "ISO2": "KE-30" }, "geometry": { "type": "Point", "coordinates": [ 36.864399455982891, -1.292629234661064 ] } },
{ "type": "Feature", "properties": { "OBJECTID": 42.0, "NAME": "Makueni", "REGION": null, "ISO2": "KE-23" }, "geometry": { "type": "Point", "coordinates": [ 37.799673664589697, -2.166198120841977 ] } },
{ "type": "Feature", "properties": { "OBJECTID": 43.0, "NAME": "Lamu", "REGION": null, "ISO2": "KE-21" }, "geometry": { "type": "Point", "coordinates": [ 40.76628622678578, -2.039559637298543 ] } },
{ "type": "Feature", "properties": { "OBJECTID": 110.0, "NAME": "Kilifi", "REGION": null, "ISO2": "KE-14" }, "geometry": { "type": "Point", "coordinates": [ 39.683142886302079, -3.173136104300505 ] } },
{ "type": "Feature", "properties": { "OBJECTID": 111.0, "NAME": "Taita Taveta", "REGION": null, "ISO2": "KE-39" }, "geometry": { "type": "Point", "coordinates": [ 38.418100077631578, -3.432458074414705 ] } },
{ "type": "Feature", "properties": { "OBJECTID": 135.0, "NAME": "Kwale", "REGION": null, "ISO2": "KE-19" }, "geometry": { "type": "Point", "coordinates": [ 39.151555995264452, -4.139057664800616 ] } },
{ "type": "Feature", "properties": { "OBJECTID": 141.0, "NAME": "Mombasa", "REGION": null, "ISO2": "KE-28" }, "geometry": { "type": "Point", "coordinates": [ 39.654620103665138, -4.017650820788067 ] } }
]
}
